City,Cloudiness,Country,Date,Humidity,Lat,Lng,Max Temp,Wind Speed
Kupang,20,ID,1584113216,100,-10.17,123.58,75.2,1.12
São Filipe,0,CV,1584112915,54,14.9,-24.5,77.63,15.23
Hilo,1,US,1584113198,82,19.73,-155.09,68.0,3.36
Letka,97,RU,1584113385,84,59.6,49.42,34.43,9.91
Aranda de Duero,84,ES,1584113387,57,41.67,-3.69,61.25,7.2
Balkhash,45,KZ,1584113255,88,46.84,74.98,24.53,3.71
Cape Town,0,ZA,1584112992,53,-33.93,18.42,75.99,14.99
Kostomuksha,98,RU,1584113394,91,64.57,30.58,25.07,13.47
Yellowknife,20,CA,1584113396,74,62.46,-114.35,-18.0,5.82
Tateyama,0,JP,1584113398,58,34.98,139.87,57.2,8.05
Pokosnoye,100,RU,1584113400,93,55.53,101.05,28.31,7.02
Kargasok,0,RU,1584113050,77,59.06,80.86,30.47,16.8
Puerto Escondido,5,MX,1584113404,69,15.85,-97.07,82.4,3.83
Barrow,90,US,1584113406,92,71.29,-156.79,26.6,41.38
Half Moon Bay,90,US,1584113065,81,37.46,-122.43,54.0,11.41
Thompson,90,CA,1584113217,70,55.74,-97.86,-2.2,13.87
Tautira,1,PF,1584113413,83,-17.73,-149.15,77.0,4.7
Mataura,2,NZ,1584112989,91,-46.19,168.86,51.01,1.01
Ushuaia,75,AR,1584113039,76,-54.8,-68.3,50.0,5.82
Lengshuitan,98,CN,1584113419,78,26.41,111.6,56.93,8.32
São João da Barra,75,BR,1584112757,66,-21.64,-41.05,86.0,6.93
Hailun,100,CN,1584113423,87,47.45,126.93,15.17,6.33
Kruisfontein,72,ZA,1584113426,71,-34.0,24.73,73.31,5.14
Geraldton,90,AU,1584113256,31,-28.77,114.6,87.8,18.34
Klaksvík,100,FO,1584112997,65,62.23,-6.59,41.0,19.46
San Patricio,90,MX,1584113034,74,19.22,-104.7,80.6,7.4
Katsuura,23,JP,1584113264,58,35.13,140.3,57.2,8.05
Province of Mantua,75,IT,1584112934,72,45.17,10.78,64.99,5.82
Atar,0,MR,1584113023,4,20.52,-13.05,90.77,3.67
Albany,90,US,1584112896,87,42.6,-73.97,54.0,19.46
Chokurdakh,100,RU,1584113098,98,70.63,147.92,-24.79,7.09
Santa Rosa,20,PH,1584113445,69,14.31,121.11,82.4,5.82
Hithadhoo,3,MV,1584112757,65,-0.6,73.08,84.29,8.52
Longyearbyen,75,SJ,1584112992,76,78.22,15.64,-5.8,8.05
Arlit,0,NE,1584113451,8,18.74,7.39,86.63,7.36
Caceres,92,ES,1584113453,59,39.52,-6.37,71.01,4.0
Punta Arenas,66,CL,1584112775,57,-53.15,-70.92,51.8,10.29
Mikhaylovka,100,RU,1584113458,56,50.06,43.24,57.99,1.99
Saint-Philippe,40,RE,1584113185,74,-21.36,55.77,80.6,17.22
San Policarpo,6,PH,1584113462,85,12.18,125.51,78.89,9.42
Egvekinot,100,RU,1584113006,97,66.32,-179.17,20.57,16.17
Talnakh,90,RU,1584112680,92,69.49,88.4,19.4,35.79
East London,20,ZA,1584113007,69,-33.02,27.91,80.6,6.93
Krasnosel'kup,100,RU,1584113470,98,65.7,82.47,34.79,19.06
Maracaibo,6,VE,1584113472,57,10.63,-71.64,84.29,4.38
Kavaratti,100,IN,1584112745,79,10.57,72.64,82.31,16.69
Bulgan,4,MN,1584113064,78,48.81,103.53,14.63,4.63
Port Macquarie,98,AU,1584113051,93,-31.43,152.92,62.01,6.4
Busselton,100,AU,1584113103,43,-33.65,115.33,69.01,19.6
Bengkulu,100,ID,1584112975,88,-3.8,102.27,76.55,3.11
Rocha,0,UY,1584113485,34,-34.48,-54.33,86.45,10.71
Lashio,0,MM,1584113487,39,22.93,97.75,69.35,2.37
Mīāndoāb,90,IR,1584112917,50,36.97,46.1,55.4,2.24
Kloulklubed,75,PW,1584113491,83,7.04,134.26,78.8,4.7
Tasiilaq,75,GL,1584113096,52,65.61,-37.64,15.8,11.41
Pevek,100,RU,1584113016,91,69.7,170.31,1.31,6.98
Los Llanos de Aridane,75,ES,1584113069,64,28.66,-17.92,69.8,13.87
Raja,81,SS,1584113500,7,8.46,25.68,97.43,4.5
Iqaluit,75,CA,1584113447,69,63.75,-68.51,-9.0,2.42
Bluff,11,NZ,1584113107,91,-46.6,168.33,51.01,1.01
Ahipara,0,NZ,1584113209,78,-35.17,173.17,63.59,15.28
Borogontsy,85,RU,1584113508,96,62.67,131.17,-12.01,4.65
Tuktoyaktuk,90,CA,1584113223,84,69.45,-133.04,3.2,21.92
Nelson Bay,0,AU,1584113067,88,-32.72,152.15,64.99,4.7
Qaanaaq,0,GL,1584113511,45,77.48,-69.36,-21.55,2.93
Mahébourg,75,MU,1584113206,100,-20.41,57.7,73.4,11.95
Tiksi,0,RU,1584113226,93,71.69,128.87,-26.23,1.63
Atuona,95,PF,1584113108,68,-9.8,-139.03,81.77,11.5
Puerto Ayora,20,EC,1584113204,83,-0.74,-90.35,81.0,10.29
Azángaro,75,PE,1584113525,62,-14.92,-70.22,53.6,3.36
Le Locle,0,CH,1584113335,34,47.06,6.75,53.01,4.7
Sukhumi,33,GE,1584113530,46,43.0,41.02,64.49,4.14
‘Āhuimanu,20,US,1584113532,78,21.44,-157.84,73.4,6.93
Düzce,0,TR,1584113534,77,40.84,31.16,52.07,4.03
Port Hardy,40,CA,1584113074,92,50.7,-127.42,30.2,6.93
Rikitea,45,PF,1584113100,77,-23.12,-134.97,75.83,14.76
Srednekolymsk,100,RU,1584113507,95,67.45,153.68,-18.67,10.67
Sittwe,0,MM,1584113526,74,20.15,92.9,78.53,11.25
Mildura,90,AU,1584113259,44,-34.2,142.15,57.2,17.22
Hermanus,0,ZA,1584113102,73,-34.42,19.23,75.99,5.01
New Norfolk,0,AU,1584112990,57,-42.78,147.06,48.2,10.29
Sitka,1,US,1584113551,67,57.05,-135.33,21.2,3.36
Saint Paul Harbor,1,US,1584113012,78,57.79,-152.41,15.8,5.82
Souris,40,CA,1584113555,65,49.62,-100.26,8.6,19.46
Weston,40,US,1584113557,61,26.1,-80.4,81.0,9.17
Oktyabr'skoye,16,RU,1584113560,54,43.06,44.74,60.01,11.18
Yulara,0,AU,1584113562,16,-25.24,130.99,86.0,10.29
Lüderitz,0,NA,1584113219,57,-26.65,15.16,77.0,23.04
Homer,1,US,1584113031,61,59.64,-151.55,18.0,0.89
Cherskiy,100,RU,1584113225,95,68.75,161.3,-12.01,15.05
Hobart,9,AU,1584112806,57,-42.88,147.33,48.2,10.29
Manggar,67,ID,1584113572,71,-2.88,108.27,83.03,4.7
Upernavik,100,GL,1584113228,94,72.79,-56.15,-11.47,4.27
Hofn,75,IS,1584113230,72,64.25,-15.21,35.6,4.7
Port Elizabeth,43,ZA,1584113008,76,-33.92,25.57,73.31,8.21
Taupo,3,NZ,1584113581,98,-38.68,176.08,45.41,1.88
Seoul,0,KR,1584112874,54,37.57,126.98,35.6,8.05
Airai,40,TL,1584113207,81,-8.93,125.41,64.31,2.55
Vaini,90,TO,1584113191,94,-21.2,-175.2,78.8,6.93
Carnarvon,90,AU,1584113099,83,-24.87,113.63,78.8,5.82
Hervey Bay,75,AU,1584112729,88,-25.3,152.85,68.0,11.41
Dikson,100,RU,1584112999,92,73.51,80.55,18.05,27.09
Bredasdorp,44,ZA,1584113498,46,-34.53,20.04,73.4,18.34
Ponta do Sol,40,PT,1584113598,67,32.67,-17.1,66.99,13.87
Ancud,75,CL,1584113525,93,-41.87,-73.82,51.8,6.93
Kotka,100,FI,1584113602,71,60.47,26.95,34.0,10.29
Quelimane,20,MZ,1584113567,70,-17.88,36.89,86.0,8.05
Pangnirtung,20,CA,1584113562,68,66.15,-65.71,-18.4,5.41
Nara,75,JP,1584113609,66,34.69,135.8,51.8,4.7
Remetea,100,RO,1584113611,69,46.78,25.45,50.0,4.0
Adrar,0,MR,1584113613,6,20.5,-10.07,87.71,5.55
Torbay,40,CA,1584113102,58,47.67,-52.73,30.0,16.11
Jamestown,90,US,1584113099,64,42.1,-79.24,42.8,19.46
Umba,100,RU,1584113619,97,66.69,34.34,28.31,7.23
Nurlat,100,RU,1584113622,90,54.43,50.81,41.63,17.92
Mar del Plata,0,AR,1584113390,61,-38.0,-57.56,79.0,11.41
Hong Kong,40,HK,1584113453,88,22.29,114.16,75.99,13.87
Vardø,20,NO,1584113511,66,70.37,31.11,14.0,17.22
Waipawa,37,NZ,1584112758,87,-41.41,175.52,51.8,3.36
San Quintín,0,MX,1584113235,79,30.48,-115.95,59.09,7.61
Kapaa,40,US,1584113099,88,22.08,-159.32,71.6,6.93
Ternate,100,ID,1584113235,87,0.8,127.4,73.85,3.29
Bambous Virieux,75,MU,1584113038,100,-20.34,57.76,73.4,19.8
Hambantota,0,LK,1584113581,78,6.12,81.12,80.6,5.82
Moranbah,43,AU,1584113643,76,-22.0,148.05,68.45,11.95
Barlinek,90,PL,1584113645,87,52.99,15.22,46.0,23.04
Örnsköldsvik,26,SE,1584113647,28,63.29,18.72,30.2,17.22
Portland,90,US,1584113366,69,45.52,-122.68,39.2,3.31
Mīnāb,100,IR,1584113651,64,27.15,57.08,73.4,4.7
Iralaya,8,HN,1584113653,67,15.0,-83.23,79.61,8.9
Kologriv,100,RU,1584113656,90,58.83,44.32,34.43,10.27
Zhangjiakou,0,CN,1584113658,28,40.81,114.88,25.61,9.48
Coachella,1,US,1584113433,64,33.68,-116.17,57.0,4.7
Ribeira Grande,20,PT,1584113618,68,38.52,-28.7,64.4,8.05
Castro,0,BR,1584113445,37,-24.79,-50.01,81.95,4.79
Curuçá,100,BR,1584113666,83,-0.73,-47.85,77.45,5.75
Butaritari,70,KI,1584113187,74,3.07,172.79,82.67,8.05
Pangody,100,RU,1584113536,99,65.85,74.49,34.43,19.3
Coos Bay,40,US,1584113641,100,43.37,-124.22,36.0,6.93
Fort Nelson,75,CA,1584113675,75,58.81,-122.7,-13.0,6.93
Khatanga,6,RU,1584113677,69,71.97,102.5,-11.47,16.24
Lata,20,PT,1584113627,67,40.16,-8.33,66.99,14.99
Bealanana,100,MG,1584113681,92,-14.55,48.73,69.17,2.53
Lavrentiya,100,RU,1584113555,92,65.58,-171.0,28.13,29.1
Bandarbeyla,35,SO,1584113550,80,9.49,50.81,79.43,19.69
Mehamn,75,NO,1584113645,56,71.04,27.85,15.8,13.87
Dingle,0,PH,1584113190,76,11.0,122.67,74.39,8.21
Coquimbo,90,CL,1584113547,82,-29.95,-71.34,64.4,5.82
Shaowu,100,CN,1584113694,95,27.34,117.48,53.69,4.12
Yeniseysk,100,RU,1584113696,94,58.45,92.17,31.55,5.37
Sisimiut,54,GL,1584113698,83,66.94,-53.67,1.13,4.56
Cuamba,69,MZ,1584113700,83,-14.8,36.54,75.11,6.89
Biograd na Moru,20,HR,1584113702,59,43.94,15.45,61.0,10.29
George Town,20,MY,1584113501,74,5.41,100.34,86.0,4.7
Lagoa,0,PT,1584113526,67,39.05,-27.98,59.99,7.27
Souillac,75,MU,1584113566,100,-20.52,57.52,73.4,11.95
Vestmannaeyjar,75,IS,1584113596,82,63.44,-20.27,32.0,13.87
Faanui,20,PF,1584113713,80,-16.48,-151.75,82.49,13.18
Dengzhou,0,CN,1584113715,53,37.81,120.75,39.83,19.28
Bend,1,US,1584113717,53,44.06,-121.32,35.01,3.13
Nouakchott,0,MR,1584113720,7,18.09,-15.98,96.8,5.82
Phalaborwa,100,ZA,1584113722,40,-23.94,31.14,88.79,8.46
Port Alfred,0,ZA,1584113602,85,-33.59,26.89,73.99,12.88
Antofagasta,20,CL,1584113364,68,-23.65,-70.4,72.0,8.05
Ambāla,67,IN,1584113686,74,30.38,76.78,59.81,10.98
Lindi,75,TZ,1584113730,74,-10.0,39.72,86.0,3.53
Follonica,75,IT,1584113732,77,42.93,10.76,64.99,5.82
Gwanda,83,ZW,1584113734,46,-20.93,29.0,82.85,11.56
Mount Gambier,40,AU,1584113737,62,-37.83,140.77,51.8,10.29
Beyneu,0,KZ,1584113739,49,45.32,55.2,51.53,10.18
Valparaíso,0,CL,1584113093,72,-33.04,-71.63,66.2,5.82
Isangel,100,VU,1584113544,80,-19.55,169.27,79.97,7.99
Kharan,0,PK,1584113745,23,28.58,65.42,66.83,3.91
Zhuhai,75,CN,1584113747,100,22.28,113.57,75.99,2.24
Chara,53,RU,1584113237,69,56.91,118.26,-1.75,11.95
Qaqortoq,75,GL,1584113723,44,60.72,-46.03,21.2,1.12
Tuatapere,14,NZ,1584113754,95,-46.13,167.68,40.73,3.31
Aykhal,99,RU,1584113756,75,66.0,111.5,-14.8,4.47
Say,5,NE,1584113758,6,13.1,2.37,95.0,9.17
Arraial do Cabo,40,BR,1584113760,70,-22.97,-42.03,84.2,12.75
Tërny,67,UA,1584113762,44,50.98,33.98,47.39,10.89
Byron Bay,40,AU,1584113764,77,-28.65,153.62,70.0,6.93
Kargala,0,RU,1584113766,88,56.62,83.96,25.25,9.71
Avarua,55,CK,1584113503,83,-21.21,-159.78,78.8,3.36
Livermore,1,US,1584113537,71,37.68,-121.77,54.0,8.28
Coyhaique,75,CL,1584113773,87,-45.58,-72.07,57.2,4.43
Almenara,83,BR,1584113546,85,-16.18,-40.69,77.63,3.53
Mount Isa,0,AU,1584113650,34,-20.73,139.5,78.8,6.93
Jalingo,69,NG,1584113779,6,8.88,11.37,94.55,7.45
Garoowe,79,SO,1584113781,42,8.41,48.48,84.47,21.94
Parola,0,IN,1584113607,16,20.88,75.12,75.29,7.72
Narsaq,75,GL,1584113209,44,60.92,-46.05,21.2,1.12
Chapais,90,CA,1584113787,92,49.78,-74.85,23.0,19.46
Vorobyevka,49,RU,1584113790,58,50.65,40.92,50.81,12.37
Constitución,55,CL,1584113616,69,-35.33,-72.42,67.55,8.28
Alofi,90,NU,1584113794,88,-19.06,-169.92,80.6,3.36
Nikolskoye,90,RU,1584113538,75,59.7,30.79,36.0,17.9
Ambalavao,28,MG,1584113798,95,-21.83,46.93,64.13,6.67
Touros,75,BR,1584113618,83,-5.2,-35.46,78.8,3.36
Natchitoches,90,US,1584113803,88,31.77,-93.13,73.4,4.45
Witu,100,KE,1584113805,70,-2.39,40.44,84.83,15.39
Havre-St-Pierre,1,CA,1584113807,47,50.23,-63.6,12.2,11.41
Namatanai,82,PG,1584113628,79,-3.67,152.43,83.03,16.35
Zamora,20,EC,1584113796,65,-4.07,-78.96,77.0,3.36
Mahon,70,ES,1584113507,72,39.89,4.27,60.8,19.46
Ugoofaaru,15,MV,1584113501,73,5.67,73.0,84.11,13.85
Okhotsk,100,RU,1584113516,94,59.38,143.3,1.13,3.91
Nanortalik,100,GL,1584113820,76,60.14,-45.24,23.09,13.67
Bloemhof,73,ZA,1584113822,67,-27.65,25.61,68.27,13.33
Palmeiras de Goiás,6,BR,1584113824,68,-16.8,-49.93,82.31,3.33
Talaya,73,RU,1584113826,97,61.38,152.75,-22.45,3.76
Muros,75,ES,1584113828,71,42.78,-9.06,57.99,11.41
Port Blair,14,IN,1584113830,68,11.67,92.75,81.77,8.28
Nadym,100,RU,1584113833,97,65.53,72.52,34.61,24.92
Saldanha,7,ZA,1584113835,50,-33.01,17.94,77.0,9.17
León,5,MX,1584113803,40,21.12,-101.67,68.0,3.0
Broome,90,US,1584113582,87,42.25,-75.83,57.99,16.11
Nouadhibou,0,MR,1584113841,21,20.93,-17.03,84.2,10.29
Kurchum,91,KZ,1584113843,80,48.57,83.65,22.37,3.36
Tilichiki,1,RU,1584113542,83,60.47,166.1,1.49,2.24
Mulegé,0,MX,1584113848,66,26.88,-111.98,62.51,4.5
Fort-Shevchenko,0,KZ,1584113850,38,44.51,50.26,52.07,5.75
Savonlinna,40,FI,1584113852,63,61.87,28.88,30.2,12.75
Haines Junction,0,CA,1584113854,81,60.75,-137.51,-10.21,2.84
Kuching,40,MY,1584113825,94,1.55,110.33,78.8,5.82
Yerbogachën,4,RU,1584113260,87,61.28,108.01,-9.49,2.75
Juneau,20,US,1584113860,85,58.3,-134.42,19.99,4.7
Pallasovka,7,RU,1584113863,53,50.05,46.88,53.15,18.5
El Salvador,0,SV,1584113865,58,13.83,-88.92,86.0,4.7
Rome,90,US,1584113584,87,43.21,-75.46,53.01,10.29
Tongliao,5,CN,1584113869,45,43.61,122.27,27.41,7.23
Markova,75,UA,1584113871,87,48.68,24.41,44.6,8.95
Pathein,0,MM,1584113873,88,16.78,94.73,75.65,7.31
Aswān,0,EG,1584113875,27,24.09,32.91,73.13,18.34
Provideniya,100,RU,1584113878,97,64.38,-173.3,27.05,20.49
Chui,0,UY,1584113616,45,-33.7,-53.46,84.47,8.3
Redlands,90,US,1584113870,93,34.06,-117.18,55.99,6.93
Røros,75,NO,1584113884,73,62.57,11.38,19.4,17.22
Terrace,75,CA,1584113540,53,54.52,-128.6,24.8,14.99
Hobyo,43,SO,1584113535,71,5.35,48.53,81.41,17.67
Andros Town,25,BS,1584113890,78,24.7,-77.77,77.0,7.0
Bayonet Point,1,US,1584113892,57,28.33,-82.68,81.0,3.58
Hays,90,US,1584113895,78,30.05,-98.03,73.0,5.82
Tbilisskaya,0,RU,1584113897,53,45.36,40.19,59.63,2.26
Kieta,23,PG,1584113589,80,-6.22,155.63,82.85,16.64
Show Low,20,US,1584113743,80,34.25,-110.03,45.0,21.92
Tokur,100,RU,1584113903,99,53.13,132.9,-6.25,1.34
Araouane,0,ML,1584113503,5,18.9,-3.53,93.29,6.96
Rabo de Peixe,20,PT,1584113907,67,37.8,-25.58,62.6,11.41
Zhezkazgan,19,KZ,1584113657,92,47.8,67.71,24.8,6.71
Manaure,40,CO,1584113912,55,11.78,-72.44,86.0,16.11
Svetlaya,0,RU,1584113540,54,46.54,138.33,21.65,10.09
Kamennogorsk,97,RU,1584113916,69,60.95,29.13,33.01,13.87
Lanivtsi,100,UA,1584113918,73,49.86,26.09,41.09,8.46
Miraflores,20,MX,1584113920,34,19.22,-98.81,75.2,5.82
Alihe,0,CN,1584113922,86,50.57,123.72,9.95,4.41
Skibbereen,75,IE,1584113924,93,51.55,-9.27,48.2,11.41
Aklavik,90,CA,1584113559,77,68.22,-135.01,10.4,2.24
Sambava,100,MG,1584113929,99,-14.27,50.17,75.47,1.3
Clyde River,75,CA,1584113931,68,70.47,-68.59,-16.6,14.99
Tignère,95,CM,1584113933,8,7.37,12.65,93.47,9.42
Kaitangata,0,NZ,1584113502,87,-46.28,169.85,50.0,7.65
De-Kastri,100,RU,1584113937,74,51.47,140.78,13.73,2.86
Lompoc,90,US,1584113940,93,34.64,-120.46,55.4,4.7
Cabo San Lucas,75,MX,1584113348,83,22.89,-109.91,71.01,3.36
Saint Anthony,40,US,1584113944,58,45.02,-93.22,30.99,11.41
Dzilam González,0,MX,1584113552,72,21.28,-88.93,74.93,13.18
Anadyr,100,RU,1584113504,79,64.75,177.48,24.8,13.42
Velký Týnec,0,CZ,1584113950,25,49.55,17.33,55.0,18.34
Yangi Marg`ilon,100,UZ,1584113952,43,40.43,71.72,55.4,5.5
Saskylakh,87,RU,1584113954,99,71.92,114.08,-25.69,3.36
Chachapoyas,84,PE,1584113957,60,-6.23,-77.87,70.61,0.27
Zottegem,20,BE,1584113959,66,50.87,3.81,51.01,11.41
Mastic Beach,90,US,1584113928,97,40.77,-72.85,55.99,18.34
Loa Janan,100,ID,1584113963,96,-0.58,117.09,74.21,2.64
Kathmandu,75,NP,1584113965,67,27.72,85.32,57.2,3.36
Rio Grande,20,BR,1584113956,66,-32.03,-52.1,86.0,9.17
Ubari,35,LY,1584113969,17,26.59,12.78,71.87,9.73
Waingapu,96,ID,1584113972,77,-9.66,120.26,83.93,10.13
Prescot,75,GB,1584113974,87,53.43,-2.8,51.01,4.7
Willowmore,60,ZA,1584113976,43,-33.29,23.49,76.91,5.66
Tiznit Province,8,MA,1584113978,30,29.58,-9.5,72.95,11.99
Acapulco de Juárez,75,MX,1584113878,78,16.86,-99.89,80.6,4.7
San Bernardo,0,CL,1584113982,53,-33.6,-70.72,78.01,7.0
Severo-Kuril'sk,100,RU,1584113534,98,50.68,156.12,29.57,30.47
Celestún,0,MX,1584113986,77,20.87,-90.4,74.57,12.86
Sokoto,0,NG,1584113989,6,13.06,5.24,95.63,12.95
Ekibastuz,100,KZ,1584113991,83,51.67,75.37,24.53,11.01
Nishihara,75,JP,1584113993,93,26.18,127.76,64.4,3.36
Meulaboh,4,ID,1584113628,70,4.14,96.13,85.37,3.85
Aksarka,100,RU,1584113997,94,66.56,67.8,34.25,22.57
Riyadh,75,SA,1584113879,12,24.69,46.72,80.6,12.75
Ukiah,0,US,1584114001,89,39.15,-123.21,51.01,2.1
Itacaré,10,BR,1584114004,77,-14.28,-39.0,81.05,7.14
Kautokeino,98,NO,1584114006,94,69.01,23.04,9.59,7.72
Safaga,77,EG,1584114008,43,26.73,33.94,67.91,22.35
Mokhsogollokh,100,RU,1584114010,97,61.47,128.92,-1.93,4.03
Porto-Novo,40,BJ,1584114012,75,6.5,2.6,89.6,14.99
Brigantine,90,US,1584113552,93,39.41,-74.36,62.01,9.17
Shahr-e Kord,97,IR,1584114016,12,32.33,50.86,57.2,9.17
Davenport,1,US,1584114018,55,41.52,-90.58,41.0,14.99
Faya,71,SA,1584113675,43,18.39,42.45,71.6,13.87
Vangaindrano,0,MG,1584114023,92,-23.35,47.6,74.57,4.61
Rovaniemi,100,FI,1584113570,57,66.5,25.72,19.4,13.87
Muroto-misakicho,53,JP,1584113529,89,33.28,134.15,48.29,4.0
Vila Franca do Campo,20,PT,1584114029,67,37.72,-25.43,62.6,11.41
Shimoda,6,JP,1584114031,57,34.67,138.95,50.0,1.01
Ostrovnoy,100,RU,1584113592,97,68.05,39.51,28.13,10.78
Uniontown,75,US,1584114035,71,39.9,-79.72,55.99,16.11
Pitimbu,75,BR,1584114037,79,-7.47,-34.81,84.2,4.7
Lerwick,75,GB,1584113269,48,60.15,-1.15,39.2,2.28
Baoying,98,CN,1584114042,79,33.23,119.31,41.99,6.29
Kilindoni,2,TZ,1584114044,76,-7.91,39.67,84.65,13.02
Bira,100,RU,1584114046,78,49.0,132.47,4.91,3.4
Praia,0,CV,1584114048,11,14.92,-23.51,91.4,20.8
Nirmal,74,IN,1584114050,49,19.1,78.35,81.23,3.89
Jatiroto,100,ID,1584114052,89,-7.88,111.12,74.57,3.56
Kumul,0,CN,1584113517,25,42.8,93.45,37.49,4.41
Banda Aceh,22,ID,1584113792,89,5.56,95.32,74.93,4.65
Qasigiannguit,75,GL,1584113616,65,68.82,-51.19,5.0,18.34
Namanyere,100,TZ,1584114061,98,-7.52,31.05,65.21,6.29
Fortuna,1,US,1584114063,100,40.6,-124.16,41.0,4.7
Morganton,75,US,1584113913,77,35.75,-81.68,69.01,6.64
Solnechnyy,32,RU,1584114068,93,50.72,136.63,4.01,3.15
Cayenne,40,GF,1584114070,55,4.93,-52.33,87.8,10.29
Fairbanks,90,US,1584114072,84,64.84,-147.72,6.01,2.84
Chipata,100,ZM,1584114074,88,-13.63,32.65,76.55,3.2
Grand Gaube,75,MU,1584114076,100,-20.01,57.66,73.4,16.69
Fare,31,PF,1584114078,79,-16.7,-151.02,82.85,13.73
Samarai,100,PG,1584114080,86,-10.62,150.67,77.81,5.64
Kiryat Gat,75,IL,1584114082,82,31.61,34.76,60.01,16.11
Conakry,0,GN,1584114020,49,9.54,-13.68,91.4,11.41
Vao,100,NC,1584113533,80,-22.67,167.48,81.41,13.18
Khandyga,39,RU,1584113680,98,62.67,135.6,-26.23,1.05
Springdale,75,US,1584114091,70,36.19,-94.13,48.2,11.41
Mandalgovi,0,MN,1584114093,74,45.76,106.27,17.51,12.1
Lebu,67,CL,1584113502,90,-37.62,-73.65,64.31,4.41
Sola,100,VU,1584114097,82,-13.88,167.55,83.21,22.97
Alice Springs,0,AU,1584114034,41,-23.7,133.88,78.8,5.82
Luleå,89,SE,1584114102,53,65.58,22.15,24.8,14.99
Bayir,0,TR,1584114104,52,37.27,28.22,71.6,9.17
Pisco,19,PE,1584113587,30,-13.7,-76.22,75.99,5.82
Serebryansk,75,KZ,1584114108,79,49.69,83.29,19.4,2.24
Cockburn Town,0,TC,1584113670,79,21.46,-71.14,76.19,13.15
Bethel,90,US,1584113636,93,41.37,-73.41,55.99,11.03
Mareeba,40,AU,1584113542,83,-17.0,145.43,78.8,2.24
Thinadhoo,96,MV,1584114116,69,0.53,72.93,84.65,10.85
Guerrero Negro,0,MX,1584113640,80,27.98,-114.06,59.81,3.18
Paradise Valley,90,US,1584114121,87,33.53,-111.94,59.0,12.15
Mazagão,75,BR,1584114123,70,-0.12,-51.29,87.8,9.17
Wexford,75,IE,1584114125,93,52.33,-6.46,45.0,17.22
Divnomorskoye,0,RU,1584114127,65,44.5,38.14,54.95,4.61
Kuytun,99,RU,1584114129,93,54.34,101.5,32.09,6.85
Lalín,75,ES,1584114131,71,42.72,-8.12,57.99,11.41
Leningradskiy,100,RU,1584113629,71,69.38,178.42,24.53,16.11
Cururupu,68,BR,1584114136,88,-1.83,-44.87,82.49,3.15
Levice,20,SK,1584114138,27,48.22,18.61,54.0,17.22
Villazón,96,BO,1584114140,54,-22.09,-65.59,59.63,6.62
Sardārshahr,0,IN,1584114142,26,28.43,74.48,69.89,9.37
Kununurra,40,AU,1584114144,74,-15.77,128.73,82.4,4.7
Lingao,0,CN,1584114146,85,19.91,109.69,75.47,13.27
Luang Prabang,0,LA,1584114148,29,19.89,102.13,76.01,1.5
Peleduy,93,RU,1584114151,97,59.63,112.74,-7.87,2.15
Dodge City,90,US,1584114153,55,37.75,-100.02,39.99,13.87
Vostok,65,RU,1584114155,94,46.49,135.88,-1.75,6.29
Odesskoye,33,RU,1584114157,86,54.21,72.97,21.29,11.05
Holme,40,DK,1584114159,69,56.11,10.17,43.0,16.11
Yar-Sale,100,RU,1584113644,98,66.83,70.83,34.07,22.75
Nsukka,10,NG,1584114163,13,6.86,7.39,95.81,6.08
Nenita,0,PH,1584114166,94,12.49,124.8,72.95,2.64
Hokitika,0,NZ,1584114168,82,-42.72,170.97,57.83,5.82
Naze,75,JP,1584114170,100,28.37,129.48,62.6,3.36
Viedma,100,AR,1584114049,26,-40.81,-63.0,86.63,9.8
Soni,67,TZ,1584114174,89,-4.85,38.37,74.75,6.96
Harindānga,40,IN,1584114176,70,22.04,88.32,84.2,7.83
Kamloops,90,CA,1584113881,58,50.67,-120.32,28.4,13.87
Uyovu,100,TZ,1584114180,98,-3.28,31.53,66.29,3.71
Zhigansk,64,RU,1584114183,100,66.77,123.37,-12.01,2.48
Alirajpur,1,IN,1584114185,19,22.3,74.35,69.53,6.69
Walvis Bay,0,NA,1584114187,44,-22.96,14.51,80.6,16.11
Karratha,0,AU,1584114034,73,-20.74,116.85,83.03,12.19
Umm Kaddadah,1,SD,1584114191,11,13.6,26.69,85.73,10.76
Gambēla,100,ET,1584114193,31,8.25,34.58,95.09,2.37
Zhangaözen,0,KZ,1584114195,34,43.3,52.8,54.23,1.36
North Platte,90,US,1584114198,55,41.12,-100.77,35.6,8.05
Maïné Soroa,38,NE,1584114200,12,13.21,12.02,86.63,12.59
Koslan,100,RU,1584114202,99,63.46,48.9,31.55,2.98
San Andrés,20,CO,1584114204,70,12.58,-81.7,84.2,11.41
Florø,40,NO,1584114206,60,61.6,5.03,32.0,10.29
Charagua,34,BO,1584114208,43,-19.8,-63.22,89.6,9.17
Srostki,71,RU,1584114211,98,52.42,85.7,27.77,3.18
Pedernales,20,DO,1584114213,66,18.04,-71.74,84.2,9.17
Santiago de Cao,20,PE,1584114215,73,-7.96,-79.24,77.0,6.93
Abnūb,100,EG,1584114217,42,27.27,31.15,65.57,21.18
Dunedin,30,NZ,1584114219,87,-45.87,170.5,51.01,4.88
Auki,100,SB,1584114221,75,-8.77,160.7,83.75,15.41
Anjiang,100,CN,1584114223,82,27.32,110.1,51.35,5.53
Tombouctou,0,ML,1584114226,5,20.0,-3.0,92.93,9.37
Salamanca,20,ES,1584114228,62,40.83,-6.0,59.0,8.05
Bardsīr,40,IR,1584114230,6,29.92,56.57,64.4,4.7
Ürümqi,79,CN,1584114232,59,43.8,87.6,35.6,2.24
Sovetskiy,51,RU,1584114234,85,61.36,63.58,34.61,12.21
Stockbridge,75,US,1584114236,73,33.54,-84.23,71.01,11.41
Hafizabad,88,PK,1584114238,88,32.07,73.69,54.23,7.34
Sibu,75,MY,1584114241,94,2.3,111.82,75.2,5.82
Cidreira,0,BR,1584113498,71,-30.18,-50.21,78.53,12.5
Stuttgart,3,DE,1584114245,46,48.78,9.18,53.01,17.22
Le Vauclin,75,MQ,1584114247,66,14.55,-60.84,84.2,16.11
Ilulissat,75,GL,1584114249,65,69.22,-51.1,5.0,18.34
Codrington,0,AU,1584114251,65,-38.27,141.97,56.21,20.76
Kysyl-Syr,98,RU,1584114253,98,63.9,122.76,-8.95,3.53
Ballina,40,AU,1584114255,77,-28.87,153.57,64.4,6.93
Parabel',0,RU,1584114258,80,58.7,81.48,29.39,12.68
Flin Flon,75,CA,1584114260,70,54.77,-101.86,-0.4,14.99
Saint George,90,US,1584114262,93,37.1,-113.58,45.0,5.28
Mabaruma,96,GY,1584114264,64,8.2,-59.78,83.57,3.76
Bathsheba,40,BB,1584114266,58,13.22,-59.52,86.0,19.46
Nova Borova,95,UA,1584114268,49,50.69,28.63,47.93,9.86
Saint-Louis,0,SN,1584114271,9,16.33,-15.0,102.2,2.24
Trairi,100,BR,1584114273,89,-3.28,-39.27,79.07,7.76
Sibolga,65,ID,1584114275,95,1.74,98.78,74.57,2.3
Chiknāyakanhalli,0,IN,1584114277,25,13.42,76.62,81.05,11.12
Yumen,0,CN,1584114279,32,40.28,97.2,32.45,10.2
Hamilton,1,US,1584114281,61,39.18,-84.53,50.0,9.17
Capitán Bado,12,PY,1584114283,45,-23.27,-55.53,91.13,10.89
That Phanom,7,TH,1584114203,74,16.94,104.71,91.0,4.72
Polis,40,CY,1584114288,77,35.04,32.43,62.6,6.93
Esna,52,EG,1584114290,34,25.29,32.55,70.07,19.06
Beringovskiy,100,RU,1584114292,83,63.05,179.32,27.77,14.9
Bonavista,0,CA,1584114294,60,48.65,-53.11,26.01,13.0
Sabang,0,ID,1584114296,79,5.89,95.32,83.75,13.62
Charters Towers,12,AU,1584114298,77,-20.1,146.27,69.89,7.56
Vysokogornyy,99,RU,1584114301,96,50.12,139.15,0.95,3.94
Tarnogskiy Gorodok,100,RU,1584114303,98,60.5,43.58,32.99,6.93
Kahului,40,US,1584114305,88,20.89,-156.47,71.6,5.82
Te Anau,9,NZ,1584114307,81,-45.42,167.72,48.65,5.99
Pelym,72,RU,1584114309,84,61.01,62.0,35.51,12.28
Visby,90,SE,1584114311,96,57.64,18.3,34.0,10.29
Ibrā’,51,OM,1584114313,12,22.69,58.53,77.63,12.88
Lebyazh'ye,100,RU,1584114315,92,55.27,66.49,33.71,16.17
Churāchāndpur,0,IN,1584114318,46,24.33,93.67,67.55,1.41
Tisul',0,RU,1584114320,85,55.76,88.31,26.15,6.6
Darnah,0,LY,1584114322,82,32.77,22.64,61.25,25.84
Salt,75,JO,1584114238,87,32.04,35.73,51.8,13.87
Evensk,80,RU,1584114326,91,61.95,159.23,-8.41,4.36
Manjeshwar,20,IN,1584114328,69,12.72,74.89,80.6,9.17
Scarborough,75,GB,1584114330,75,54.28,-0.4,46.99,12.75
Omsukchan,100,RU,1584114333,96,62.53,155.8,-18.31,3.42
Mossendjo,97,CG,1584114335,63,-2.95,12.73,86.63,3.2
Vila Velha,75,BR,1584114279,83,-20.33,-40.29,82.0,6.93
Leh,100,IN,1584114339,56,34.17,77.58,19.49,2.21
Kayes,0,ML,1584114341,22,14.0,-11.0,100.4,10.29
Husavik,75,IS,1584114343,85,66.04,-17.34,21.2,9.17
Nchelenge,100,ZM,1584114345,82,-9.35,28.73,73.49,6.4
Tamiahua,49,MX,1584114348,89,21.27,-97.45,74.39,5.37
Itaituba,98,BR,1584114350,51,-4.28,-55.98,91.13,4.05
Lara,40,AU,1584114352,54,-38.02,144.4,57.99,20.8
Korla,2,CN,1584114354,66,41.76,86.15,39.99,7.0
Imbituba,0,BR,1584114356,58,-28.24,-48.67,86.0,11.41
Road Town,75,VG,1584114358,74,18.42,-64.62,82.4,6.93
Borborema,0,BR,1584114360,55,-21.62,-49.07,84.65,5.01
Bilma,0,NE,1584114362,11,18.69,12.92,79.79,5.68
Tura,73,IN,1584114082,34,25.52,90.22,76.91,5.26
Fayaoué,100,NC,1584114367,80,-20.65,166.53,82.67,14.12
Doha,83,QA,1584114290,68,25.29,51.53,73.99,8.05
Ixtapa,20,MX,1584114371,83,20.7,-105.2,78.01,2.24
Misratah,33,LY,1584114373,75,32.38,15.09,61.07,9.04
Port Keats,87,AU,1584114375,77,-14.25,129.55,83.21,8.01
Gombe,33,NG,1584114377,8,10.29,11.17,90.95,9.75
Sīrjān,16,IR,1584114379,11,29.45,55.68,64.13,5.01
Henties Bay,0,NA,1584114374,87,-22.12,14.28,66.99,5.01
Galich,99,RU,1584114384,96,58.38,42.35,34.07,11.79
Marabu,75,MY,1584114386,88,4.41,114.01,82.4,5.82
Hirara,0,JP,1584114388,84,24.8,125.28,70.61,7.83
Xingcheng,4,CN,1584114390,20,40.62,120.72,38.39,10.83
Ormara,0,PK,1584114392,57,25.21,64.64,73.49,5.32
Padang,61,ID,1584114394,96,-0.95,100.35,70.25,3.09
Novopskov,60,UA,1584114397,75,49.55,39.09,53.33,9.44
Westport,90,US,1584114399,93,41.14,-73.36,55.99,16.6
Menongue,45,AO,1584114401,58,-14.66,17.69,79.97,5.66
Trat,2,TH,1584114403,74,12.5,102.5,82.99,1.16
Caravelas,100,BR,1584114369,71,-17.71,-39.25,80.69,5.46
Hyères,13,FR,1584114407,82,43.12,6.12,73.4,12.75
Pauini,100,BR,1584114410,76,-7.71,-66.98,86.09,1.34
Antalaha,100,MG,1584114412,83,-14.9,50.28,82.13,27.85
Cap Malheureux,75,MU,1584114414,100,-19.98,57.61,73.4,16.69
Swan Hill,33,AU,1584114416,44,-35.34,143.55,55.31,20.0
Kosh-Agach,21,RU,1584114418,64,50.0,88.67,8.33,2.13
Havøysund,75,NO,1584114420,79,71.0,24.66,19.4,23.04
Talā,56,EG,1584114423,71,30.68,30.94,61.79,15.48
Gelibolu,0,TR,1584114425,45,40.41,26.67,64.4,11.41
Contai,0,IN,1584114427,61,21.78,87.75,79.97,6.44
Acajutla,0,SV,1584114429,51,13.59,-89.83,80.6,3.36
Safi,0,MA,1584114431,62,32.3,-9.24,67.73,14.65
Batticaloa,0,LK,1584114433,86,7.71,81.69,72.95,2.17
Hawera,7,NZ,1584114435,96,-39.59,174.28,52.0,2.15
Innisfail,71,AU,1584114437,91,-17.53,146.03,71.87,5.03
Raudeberg,40,NO,1584114440,59,61.99,5.14,33.01,10.29
Whitehorse,75,CA,1584114442,75,60.72,-135.05,-17.0,4.7
Priiskovyy,73,RU,1584114444,77,51.93,116.63,13.91,6.55
Fallon,40,US,1584114446,34,39.47,-118.78,41.0,10.29
Tupaciguara,3,BR,1584114448,70,-18.59,-48.7,81.05,6.69
Cabra,88,ES,1584114450,49,37.47,-4.44,77.0,8.05
Progreso,20,MX,1584114452,61,21.28,-89.67,84.0,17.22
Honiara,40,SB,1584114454,100,-9.43,159.95,75.2,2.04
Sulangan,0,PH,1584114457,79,11.14,123.72,81.05,7.81
Pajapan,90,MX,1584114459,83,18.25,-94.7,78.8,6.93
Saint-Marc,0,HT,1584114461,60,19.11,-72.69,76.55,3.18
Daman,12,IN,1584114463,39,20.42,72.85,68.45,3.94
Orange Cove,100,US,1584114465,87,36.62,-119.31,57.99,12.75
Bemidji,90,US,1584114210,85,47.47,-94.88,21.99,18.34
Maraial,95,BR,1584114469,44,-8.78,-35.81,88.07,9.57
Olafsvik,100,IS,1584114471,73,64.89,-23.71,28.85,20.02
Algiers,100,DZ,1584114199,50,36.75,3.04,75.2,9.17
Morondava,0,MG,1584114476,70,-20.28,44.28,84.47,7.34
Synya,100,RU,1584114478,96,65.37,58.04,32.63,12.93
San Vicente,20,AR,1584114480,32,-26.62,-54.13,92.75,4.38
Şabyā,30,SA,1584114482,70,17.15,42.63,84.2,10.29
Corner Brook,75,CA,1584114484,38,48.97,-57.95,24.8,12.75
Abhar,100,IR,1584114486,53,36.15,49.22,48.11,5.01
Christchurch,81,NZ,1584114489,82,-43.53,172.63,59.0,17.22
Majene,100,ID,1584114491,90,-3.54,118.97,77.09,4.56
San Cosme y Damián,45,PY,1584114493,47,-27.32,-56.35,95.0,5.82
Kushima,90,JP,1584114495,87,31.46,131.23,51.8,3.36
Beloha,0,MG,1584114497,63,-25.17,45.05,79.43,19.66
Baykit,100,RU,1584114499,98,61.67,96.37,29.57,3.8
Pochutla,5,MX,1584114502,69,15.74,-96.47,87.01,5.3
Okha,0,RU,1584114504,86,53.57,142.95,-7.87,8.88
Mersing,93,MY,1584114506,88,2.43,103.84,82.4,6.93
Port Augusta,90,AU,1584114508,63,-32.5,137.77,60.8,19.46
Kirakira,99,SB,1584114510,83,-10.45,161.92,78.17,6.4
João Pinheiro,6,BR,1584114463,77,-17.74,-46.17,79.43,5.97
Djibo,0,BF,1584114514,5,14.1,-1.63,100.49,9.95
Palu,100,ID,1584114517,99,-0.89,119.87,69.35,0.72
Inírida,100,CO,1584114519,94,3.87,-67.92,74.93,3.58
Naryan-Mar,78,RU,1584114521,96,67.67,53.09,23.09,5.59
Taltal,78,CL,1584114523,72,-25.4,-70.48,67.55,7.54
Prado,100,BR,1584114525,71,-17.34,-39.22,80.69,5.46
Sioux Lookout,90,CA,1584114527,78,50.1,-91.92,14.0,16.11
Caucayá,100,CO,1584114529,84,-0.19,-74.78,78.53,1.61
Locri,40,IT,1584114531,42,38.24,16.26,68.0,3.36
Penalva,24,BR,1584114534,55,-3.29,-45.17,91.31,3.67
Rumilly,20,FR,1584114536,37,45.87,5.95,55.4,6.93
Port Shepstone,100,ZA,1584114538,79,-30.74,30.45,77.45,8.55
Zarechnyy,0,RU,1584114540,37,53.2,45.19,48.0,16.06
Smithers,75,CA,1584114302,47,54.78,-127.17,15.8,13.87
Flinders,40,AU,1584114544,64,-34.58,150.86,68.0,10.29
Norman Wells,40,CA,1584114546,75,65.28,-126.83,-13.0,8.05
Porbandar,33,IN,1584114548,60,21.64,69.61,75.29,17.92
Sheregesh,0,RU,1584114551,84,52.92,87.99,24.35,2.57
New Port Richey,1,US,1584114553,65,28.24,-82.72,82.0,4.21
Zyryanovsk,98,KZ,1584114555,57,49.74,84.27,18.05,2.3
Cap-Haïtien,40,HT,1584114557,65,19.76,-72.2,78.8,6.93
Saint-Leu,90,RE,1584114559,78,-21.15,55.28,80.6,14.99
Lorengau,0,PG,1584114561,77,-2.02,147.27,84.11,13.53
Avera,75,US,1584114563,77,33.19,-82.53,73.99,8.05
Saddiqabad,0,PK,1584114565,32,28.31,70.13,66.11,5.82
Hinton,100,CA,1584114568,95,53.4,-117.59,-9.67,3.83
Preslav,0,BG,1584114570,45,43.17,26.82,65.03,5.03
Fomboni,100,KM,1584114572,69,-12.28,43.74,86.09,6.6
Manokwari,100,ID,1584114574,88,-0.87,134.08,73.13,6.15
Sørland,40,NO,1584114576,73,67.67,12.69,24.8,14.99
Inta,98,RU,1584114578,93,66.03,60.17,32.81,21.61
Nordhausen,40,DE,1584114580,49,51.52,10.8,48.99,25.28
Yingkou,0,CN,1584114583,71,40.66,122.23,35.87,19.84
Opuwo,94,NA,1584114585,30,-18.06,13.84,86.81,9.62
Vylkove,34,UA,1584114587,40,45.4,29.59,65.75,12.55
Urdoma,99,RU,1584114589,97,61.75,48.54,32.63,10.09
Thaba-Tseka,48,LS,1584114591,38,-29.52,28.61,63.41,14.03
Yuanping,0,CN,1584114593,28,38.72,112.76,32.63,7.4
Soresina,40,IT,1584114595,63,45.29,9.86,69.01,5.82
Itarema,75,BR,1584114597,83,-2.92,-39.92,84.2,5.82
Jönköping,89,SE,1584114342,51,57.78,14.16,34.0,11.41
Aljezur,100,PT,1584114602,81,37.32,-8.8,62.01,19.3
Quibor,74,VE,1584114604,61,9.93,-69.62,77.0,2.24
Makakilo City,20,US,1584114606,100,21.35,-158.09,73.4,4.7
Mnogovershinnyy,0,RU,1584114608,88,53.94,139.92,-0.67,4.7
San Ignacio,19,BZ,1584114610,83,17.16,-89.07,82.0,6.93
Porto Santo,20,PT,1584114612,59,33.07,-16.34,64.4,14.99
